{
    "proje": [
        [
            {
                "name": "DKY Cadde Erenköy 86",
                "lat": "40.978344",
                "lng": "29.073153",
                "icon": "\/images\/Erenkoy_map_icon.png",
                "link": "#",
                "image": "\/images\/map-erenkoy.jpg",
                "c_id": "1",
                "category_name": "Tamamlanan Projeler"
            }
        ]
    ],
    "lokasyonlar": [
        [
            {
                "name": "Acıbadem Kozyatağı Hastanesi",
                "lat": "40.976609",
                "lng": "29.092947",
                "icon": "images/Hastane-Gold.png",
                "link": "#",
                "image": "https://lh5.googleusercontent.com/p/AF1QipMu5UD2ZgdapRCfkoaJpaHxlK1YfbNGtkdBp7QJ=w408-h229-k-no",
                "c_id": "2",
                "category_name": "hastaneler"
            },
            {
                "name": "Yeditepe Üniversitesi Hastanesi Bağdat Caddesi Polikliniği",
                "lat": "40.972120",
                "lng": "29.057738",
                "icon": "images/Hastane-Gold.png",
                "link": "#",
                "image": "https://lh5.googleusercontent.com/TSIQL3_xSgoRu-M9HzMtcday0yl_PbIYj30g9WVPsEgwfrfzuztAZNXKiozk90E=w408-h229-k-no",
                "c_id": "2",
                "category_name": "hastaneler"
            }
        ],
        [
            {
                "name": "Marmara Üniversitesi",
                "lat": "40.9128932",
                "lng": "29.1729242",
                "icon": "images/Okul-Gold.png",
                "link": "#dkyOnKagithaneLink",
                "image": "https://maps.gstatic.com/tactile/pane/default_geocode-1x.png",
                "c_id": "3",
                "category_name": "okullar"
            },
            {
                "name": "İstanbul Medeniyet Üniversitesi",
                "lat": "40.995313",
                "lng": "29.064570",
                "icon": "images/Okul-Gold.png",
                "link": "#dkyOnKagithaneLink",
                "image": "https://lh5.googleusercontent.com/p/AF1QipN3QSOO83hmsqsOIRG2G3BYv5IYFfeSmHK4JlGb=w408-h272-k-no",
                "c_id": "3",
                "category_name": "okullar"
            }
        ],
        [
            {
                "name": "Erenköy Tren istasyonu",
                "lat": "40.971525",
                "lng": "29.076773",
                "icon": "images/metro-Gold.png",
                "link": "#",
                "image": "https://lh5.googleusercontent.com/p/AF1QipNwLfGb429MlEHYNHMKYNNbPmUSweSX22sS9pob=w408-h306-k-no",
                "c_id": "3",
                "category_name": "ulaşım"
            },
            {
                "name": "Star Telsiz Taksi",
                "lat": "40.977137",
                "lng": "29.074083",
                "icon": "images/taxi.png",
                "link": "#",
                "image": "https://lh6.googleusercontent.com/9gx84Cs8wgew-Hy63fDOdcv7MnAtWUlrCK31yTW3ah4CJKOV0ttGK6ozOlQ0LmZ2=w408-h229-k-no",
                "c_id": "3",
                "category_name": "ulaşım"
            },
            {
                "name": "Star Telsiz Taksi",
                "lat": "40.977137",
                "lng": "29.074083",
                "icon": "images/taxi.png",
                "link": "#",
                "image": "https://lh6.googleusercontent.com/9gx84Cs8wgew-Hy63fDOdcv7MnAtWUlrCK31yTW3ah4CJKOV0ttGK6ozOlQ0LmZ2=w408-h229-k-no",
                "c_id": "3",
                "category_name": "ulaşım"
            },
            {
                "name": "IDO Bostanci",
                "lat": "40.952343",
                "lng": "29.092175",
                "icon": "images/Feribot-Gold.png",
                "link": "#",
                "image": "https://lh5.googleusercontent.com/p/AF1QipMxIztRQPlXjy74_HG3WdY9ZH4QEbciZ-Cm2Yn6=w408-h306-k-no",
                "c_id": "3",
                "category_name": "ulaşım"
            }
        ],
        [
            {
                "name": "Kadikoy Ilce Emniyet Mudurlugu",
                "lat": "40.980801",
                "lng": "29.076399",
                "icon": "images/Resmi-Kurum-Gold.png",
                "link": "#",
                "image": "https://lh6.googleusercontent.com/LR1CDhPDrti6WPr0Zlqb5EuzFG5F7-aOfyZCggqHDOMoj-6TGOvgilib4wuFQeTXXA=w408-h229-k-no",
                "c_id": "4",
                "category_name": "resmi kurum"
            },
            {
                "name": "PTT Erenköy",
                "lat": "40.973336",
                "lng": "29.074495",
                "icon": "images/Resmi-Kurum-Gold.png",
                "link": "#",
                "image": "https://lh5.googleusercontent.com/p/AF1QipNoaWX_xxzCNydK9ZteXAgDnTc_wWOA8BTg3jEh=w408-h229-k-no",
                "c_id": "4",
                "category_name": "resmi kurum"
            }
        ],
        [
            {
                "name": "Kozzy Alışveriş Ve Kültür Merkezi",
                "lat": "40.969206",
                "lng": "29.091638",
                "icon": "images/AVM-Gold.png",
                "link": "#",
                "image": "https://lh5.googleusercontent.com/p/AF1QipO2F8tRtq3Pn6FE_jssAJRrCfmhVBGJEETCAKQr=w408-h229-k-no",
                "c_id": "4",
                "category_name": "AVM"
            },
            {
                "name": "Palladium Mall",
                "lat": "40.986126",
                "lng": "29.100144",
                "icon": "images/AVM-Gold.png",
                "link": "#",
                "image": "https://lh5.googleusercontent.com/p/AF1QipMC1bxQKP6rOg93eYcUpzPzJIAlO6pOtUkVe48z=w408-h306-k-no",
                "c_id": "4",
                "category_name": "AVM"
            }
        ],
        [
            {
                "name": "Hacegan Hatıra Ormanı",
                "lat": "41.040660",
                "lng": "29.117807",
                "icon": "images/Orman-Gold.png",
                "link": "#",
                "image": "https://lh5.googleusercontent.com/p/AF1QipN7MwSF8Cf4-T22OVSyzJH9aJbibggwqNtdS3N_=w408-h306-k-no",
                "c_id": "5",
                "category_name": "Orman"
            }
        ],
        [
            {
                "name": "Sahrayı Cedid Cami",
                "lat": "40.980227",
                "lng": "29.077369",
                "icon": "images/Camii-Gold.png",
                "link": "#",
                "image": "https://lh5.googleusercontent.com/p/AF1QipN5pLb8AEY1lhs47qozWUcX1tDIuKew9eeGPtSL=w408-h544-k-no",
                "c_id": "6",
                "category_name": "Cami"
            },
            {
                "name": "Şakir Berkan Camii",
                "lat": "40.974516",
                "lng": "29.071375",
                "icon": "images/Camii-Gold.png",
                "link": "#",
                "image": "https://lh5.googleusercontent.com/p/AF1QipNtRxsIdJBmKg_b6MZ3hHtgBWyh2K_aJ4jjN8cJ=w408-h725-k-no",
                "c_id": "6",
                "category_name": "Cami"
            }
        ],
        [
            {
                "name": "Özgürlük Parkı",
                "lat": "40.978407",
                "lng": "29.052764",
                "icon": "images/Park-Gold2.png",
                "link": "#",
                "image": "https://lh5.googleusercontent.com/p/AF1QipOOS7OcLL5MZVdmmv3IOC-39X58n057wJwuIJeB=w408-h306-k-no",
                "c_id": "7",
                "category_name": "Park"
            },
            {
                "name": "Şht. Asteğmen İbrahim Gürhan Parkı",
                "lat": "40.980216",
                "lng": "29.077125",
                "icon": "images/Park-Gold2.png",
                "link": "#",
                "image": "https://lh5.googleusercontent.com/p/AF1QipPeC6KtTJfFRvY3_0wayoUA9Abk1zHzc7XSNsvA=w408-h229-k-no",
                "c_id": "7",
                "category_name": "Park"
            }
        ],
        [
            {
                "name": "Ginger Pizza",
                "lat": "40.979233",
                "lng": "29.073069",
                "icon": "images/Yemek-Gold.png",
                "link": "#",
                "image": "https://lh5.googleusercontent.com/p/AF1QipNAYhb1Z5akzhJNwZ8M4Z1E-KnGrDG__Wj-2AUe=w408-h550-k-no",
                "c_id": "8",
                "category_name": "Yemek"
            },
            {
                "name": "Burger X",
                "lat": "40.979842",
                "lng": "29.073971",
                "icon": "images/Yemek-Gold.png",
                "link": "#",
                "image": "https://lh6.googleusercontent.com/eLshmyowZnI_4XGQRNoa3KTfAR-REwBI2QtRee5tJJq4PnKfhybGDF0VFY69p7c=w408-h229-k-no",
                "c_id": "8",
                "category_name": "Yemek"
            }
        ],
        [
            {
                "name": "Erenköy World Gym Fitness Center",
                "lat": "40.979506",
                "lng": "29.076832",
                "icon": "images/Spor-Gold.png",
                "link": "#",
                "image": "https://lh5.googleusercontent.com/p/AF1QipNG7psPeGtMgug64AdwrDZnME9ZqWEbhOVyqTCx=w408-h272-k-no",
                "c_id": "9",
                "category_name": "Spor"
            },
            {
                "name": "Fitness Form Club",
                "lat": "40.971518",
                "lng": "29.076363",
                "icon": "images/Spor-Gold.png",
                "link": "#",
                "image": "https://lh5.googleusercontent.com/p/AF1QipModDIhq-W9R6kTv5vJlLutRtXVjs9XsemlGP-Q=w408-h544-k-no",
                "c_id": "9",
                "category_name": "Spor"
            }
        ]
        
    ]
}